name,city,rating,types,latitude,longitude,description,category,price_level,amenities,room_types,cuisine_type,specialties,food_type,historical_period,special_features,entertainment_type,wellness_type,family_type,created_at
Sofitel Legend Metropole Hanoi,Hanoi,4.8,"['hotel', 'luxury', 'historic']",21.0255,105.8542,Khách sạn 5 sao lịch sử với kiến trúc Pháp cổ điển,luxury_hotel,5.0,"['wifi', 'spa', 'pool', 'restaurant', 'gym', 'concierge']","['deluxe', 'suite', 'presidential']",,,,,,,,,
InterContinental Hanoi Westlake,Hanoi,4.6,"['hotel', 'luxury', 'lakefront']",21.0455,105.8242,Khách sạn 5 sao bên hồ Tây với view đẹp,luxury_hotel,5.0,"['wifi', 'spa', 'pool', 'restaurant', 'gym', 'lake_view']","['deluxe', 'suite', 'lake_villa']",,,,,,,,,
Hanoi Daewoo Hotel,Hanoi,4.4,"['hotel', 'business', 'modern']",21.0255,105.8542,Khách sạn 5 sao hiện đại cho doanh nhân,business_hotel,4.0,"['wifi', 'spa', 'pool', 'restaurant', 'gym', 'business_center']","['deluxe', 'suite', 'executive']",,,,,,,,,
Hotel de l'Opera Hanoi,Hanoi,4.5,"['hotel', 'boutique', 'cultural']",21.0255,105.8542,Khách sạn boutique với phong cách opera,boutique_hotel,4.0,"['wifi', 'spa', 'restaurant', 'cultural_tours']","['deluxe', 'suite', 'opera_suite']",,,,,,,,,
Hanoi La Siesta Hotel,Hanoi,4.3,"['hotel', 'midrange', 'traditional']",21.0255,105.8542,Khách sạn 4 sao với phong cách truyền thống,midrange_hotel,3.0,"['wifi', 'restaurant', 'tour_desk']","['standard', 'deluxe', 'family']",,,,,,,,,
The Reverie Saigon,Ho Chi Minh City,4.9,"['hotel', 'luxury', 'modern']",10.7796,106.6992,Khách sạn 5 sao sang trọng nhất TP.HCM,luxury_hotel,5.0,"['wifi', 'spa', 'pool', 'restaurant', 'gym', 'rooftop_bar']","['deluxe', 'suite', 'penthouse']",,,,,,,,,
Park Hyatt Saigon,Ho Chi Minh City,4.7,"['hotel', 'luxury', 'colonial']",10.7796,106.6992,Khách sạn 5 sao với kiến trúc thuộc địa,luxury_hotel,5.0,"['wifi', 'spa', 'pool', 'restaurant', 'gym', 'colonial_style']","['deluxe', 'suite', 'colonial_suite']",,,,,,,,,
Sheraton Saigon Hotel,Ho Chi Minh City,4.5,"['hotel', 'business', 'modern']",10.7796,106.6992,Khách sạn 5 sao cho doanh nhân,business_hotel,4.0,"['wifi', 'spa', 'pool', 'restaurant', 'gym', 'business_center']","['deluxe', 'suite', 'executive']",,,,,,,,,
Hotel Nikko Saigon,Ho Chi Minh City,4.4,"['hotel', 'business', 'japanese']",10.7796,106.6992,Khách sạn 5 sao phong cách Nhật Bản,business_hotel,4.0,"['wifi', 'spa', 'pool', 'restaurant', 'gym', 'japanese_service']","['deluxe', 'suite', 'executive']",,,,,,,,,
Liberty Central Saigon Citypoint,Ho Chi Minh City,4.2,"['hotel', 'midrange', 'modern']",10.7796,106.6992,Khách sạn 4 sao hiện đại trung tâm,midrange_hotel,3.0,"['wifi', 'restaurant', 'gym', 'city_view']","['standard', 'deluxe', 'family']",,,,,,,,,
Four Seasons Resort The Nam Hai,Hoi An,4.9,"['resort', 'luxury', 'beachfront']",15.8786049,108.3348312,Resort 5 sao bãi biển sang trọng,luxury_resort,5.0,"['wifi', 'spa', 'pool', 'restaurant', 'beach_access', 'villa']","['villa', 'suite', 'beach_villa']",,,,,,,,,
Anantara Hoi An Resort,Hoi An,4.6,"['resort', 'luxury', 'riverside']",15.8786049,108.3348312,Resort 5 sao bên sông Thu Bồn,luxury_resort,4.0,"['wifi', 'spa', 'pool', 'restaurant', 'river_view', 'cultural_tours']","['deluxe', 'suite', 'river_villa']",,,,,,,,,
Hoi An Silk Marina Resort & Spa,Hoi An,4.4,"['resort', 'midrange', 'beachfront']",15.8786049,108.3348312,Resort 4 sao bãi biển với spa,midrange_resort,3.0,"['wifi', 'spa', 'pool', 'restaurant', 'beach_access']","['standard', 'deluxe', 'family']",,,,,,,,,
Hoi An Ancient House Resort,Hoi An,4.3,"['resort', 'boutique', 'traditional']",15.8786049,108.3348312,Resort boutique phong cách cổ điển,boutique_resort,3.0,"['wifi', 'spa', 'restaurant', 'cultural_tours']","['deluxe', 'suite', 'ancient_house']",,,,,,,,,
Palm Garden Beach Resort & Spa,Hoi An,4.2,"['resort', 'midrange', 'beachfront']",15.8786049,108.3348312,Resort 4 sao với vườn cọ,midrange_resort,3.0,"['wifi', 'spa', 'pool', 'restaurant', 'beach_access', 'garden']","['standard', 'deluxe', 'garden_villa']",,,,,,,,,
Azerai La Residence Hue,Hue,4.7,"['hotel', 'luxury', 'historic']",16.4689732,107.578125,Khách sạn 5 sao trong cung điện cổ,luxury_hotel,4.0,"['wifi', 'spa', 'pool', 'restaurant', 'historic_tours']","['deluxe', 'suite', 'imperial_suite']",,,,,,,,,
Pilgrimage Village Boutique Resort,Hue,4.5,"['resort', 'boutique', 'spiritual']",16.4689732,107.578125,Resort boutique với không gian tâm linh,boutique_resort,3.0,"['wifi', 'spa', 'pool', 'restaurant', 'meditation', 'yoga']","['deluxe', 'suite', 'spiritual_villa']",,,,,,,,,
Saigon Morin Hotel,Hue,4.3,"['hotel', 'historic', 'colonial']",16.4689732,107.578125,Khách sạn lịch sử với kiến trúc thuộc địa,historic_hotel,3.0,"['wifi', 'restaurant', 'historic_tours']","['standard', 'deluxe', 'colonial_suite']",,,,,,,,,
Moonlight Hotel Hue,Hue,4.1,"['hotel', 'midrange', 'modern']",16.4689732,107.578125,Khách sạn 4 sao hiện đại,midrange_hotel,2.0,"['wifi', 'restaurant', 'gym']","['standard', 'deluxe', 'family']",,,,,,,,,
InterContinental Danang Sun Peninsula Resort,Da Nang,4.8,"['resort', 'luxury', 'beachfront']",16.0567,108.2456,Resort 5 sao bãi biển sang trọng,luxury_resort,5.0,"['wifi', 'spa', 'pool', 'restaurant', 'beach_access', 'golf']","['villa', 'suite', 'beach_villa']",,,,,,,,,
Fusion Maia Da Nang,Da Nang,4.6,"['resort', 'luxury', 'wellness']",16.0567,108.2456,Resort 5 sao tập trung wellness,luxury_resort,4.0,"['wifi', 'spa', 'pool', 'restaurant', 'wellness_programs']","['deluxe', 'suite', 'wellness_villa']",,,,,,,,,
Hyatt Regency Danang Resort & Spa,Da Nang,4.5,"['resort', 'luxury', 'beachfront']",16.0567,108.2456,Resort 5 sao với spa chuyên nghiệp,luxury_resort,4.0,"['wifi', 'spa', 'pool', 'restaurant', 'beach_access']","['deluxe', 'suite', 'beach_villa']",,,,,,,,,
Pullman Danang Beach Resort,Da Nang,4.3,"['resort', 'midrange', 'beachfront']",16.0567,108.2456,Resort 4 sao bãi biển hiện đại,midrange_resort,3.0,"['wifi', 'spa', 'pool', 'restaurant', 'beach_access']","['standard', 'deluxe', 'family']",,,,,,,,,
Novotel Danang Premier Han River,Da Nang,4.2,"['hotel', 'business', 'riverside']",16.0567,108.2456,Khách sạn 4 sao bên sông Hàn,business_hotel,3.0,"['wifi', 'spa', 'pool', 'restaurant', 'business_center']","['standard', 'deluxe', 'executive']",,,,,,,,,
Vinpearl Resort & Spa Nha Trang,Nha Trang,4.7,"['resort', 'luxury', 'beachfront']",12.2388,109.1967,Resort 5 sao với đảo riêng,luxury_resort,4.0,"['wifi', 'spa', 'pool', 'restaurant', 'private_island']","['villa', 'suite', 'island_villa']",,,,,,,,,
Amanoi Resort,Nha Trang,4.9,"['resort', 'luxury', 'wellness']",12.2388,109.1967,Resort 5 sao wellness cao cấp,luxury_resort,5.0,"['wifi', 'spa', 'pool', 'restaurant', 'wellness_programs', 'private_beach']","['villa', 'suite', 'wellness_villa']",,,,,,,,,
Six Senses Ninh Van Bay,Nha Trang,4.8,"['resort', 'luxury', 'eco']",12.2388,109.1967,Resort 5 sao sinh thái,luxury_resort,5.0,"['wifi', 'spa', 'pool', 'restaurant', 'eco_friendly', 'private_bay']","['villa', 'suite', 'eco_villa']",,,,,,,,,
Sheraton Nha Trang Hotel & Spa,Nha Trang,4.4,"['hotel', 'business', 'beachfront']",12.2388,109.1967,Khách sạn 5 sao bãi biển,business_hotel,4.0,"['wifi', 'spa', 'pool', 'restaurant', 'beach_access']","['deluxe', 'suite', 'beach_suite']",,,,,,,,,
Mia Resort Nha Trang,Nha Trang,4.3,"['resort', 'midrange', 'beachfront']",12.2388,109.1967,Resort 4 sao bãi biển boutique,midrange_resort,3.0,"['wifi', 'spa', 'pool', 'restaurant', 'beach_access']","['standard', 'deluxe', 'beach_villa']",,,,,,,,,
Dalat Palace Heritage Hotel,Da Lat,4.6,"['hotel', 'luxury', 'historic']",11.9404,108.4583,Khách sạn 5 sao lịch sử trên đồi,luxury_hotel,4.0,"['wifi', 'spa', 'restaurant', 'historic_tours', 'mountain_view']","['deluxe', 'suite', 'palace_suite']",,,,,,,,,
Ana Mandara Villas Dalat Resort & Spa,Da Lat,4.5,"['resort', 'luxury', 'villa']",11.9404,108.4583,Resort 5 sao với villa riêng,luxury_resort,4.0,"['wifi', 'spa', 'pool', 'restaurant', 'private_villa']","['villa', 'suite', 'mountain_villa']",,,,,,,,,
Terracotta Hotel & Resort Dalat,Da Lat,4.3,"['resort', 'midrange', 'mountain']",11.9404,108.4583,Resort 4 sao trên núi,midrange_resort,3.0,"['wifi', 'spa', 'pool', 'restaurant', 'mountain_view']","['standard', 'deluxe', 'mountain_villa']",,,,,,,,,
Sofitel Dalat Palace,Da Lat,4.4,"['hotel', 'luxury', 'colonial']",11.9404,108.4583,Khách sạn 5 sao phong cách thuộc địa,luxury_hotel,4.0,"['wifi', 'spa', 'restaurant', 'colonial_style']","['deluxe', 'suite', 'colonial_suite']",,,,,,,,,
TTC Hotel - Ngoc Lan,Da Lat,4.1,"['hotel', 'midrange', 'modern']",11.9404,108.4583,Khách sạn 4 sao hiện đại,midrange_hotel,2.0,"['wifi', 'restaurant', 'gym']","['standard', 'deluxe', 'family']",,,,,,,,,
JW Marriott Phu Quoc Emerald Bay Resort & Spa,Phu Quoc,4.8,"['resort', 'luxury', 'beachfront']",10.2899,103.984,Resort 5 sao bãi biển sang trọng,luxury_resort,5.0,"['wifi', 'spa', 'pool', 'restaurant', 'private_beach', 'golf']","['villa', 'suite', 'beach_villa']",,,,,,,,,
Salinda Resort Phu Quoc Island,Phu Quoc,4.6,"['resort', 'luxury', 'beachfront']",10.2899,103.984,Resort 5 sao với spa chuyên nghiệp,luxury_resort,4.0,"['wifi', 'spa', 'pool', 'restaurant', 'beach_access']","['deluxe', 'suite', 'beach_villa']",,,,,,,,,
La Veranda Resort Phu Quoc,Phu Quoc,4.5,"['resort', 'luxury', 'colonial']",10.2899,103.984,Resort 5 sao phong cách thuộc địa,luxury_resort,4.0,"['wifi', 'spa', 'pool', 'restaurant', 'colonial_style']","['deluxe', 'suite', 'colonial_villa']",,,,,,,,,
Fusion Resort Phu Quoc,Phu Quoc,4.4,"['resort', 'midrange', 'wellness']",10.2899,103.984,Resort 4 sao tập trung wellness,midrange_resort,3.0,"['wifi', 'spa', 'pool', 'restaurant', 'wellness_programs']","['standard', 'deluxe', 'wellness_villa']",,,,,,,,,
Novotel Phu Quoc Resort,Phu Quoc,4.3,"['resort', 'midrange', 'beachfront']",10.2899,103.984,Resort 4 sao bãi biển hiện đại,midrange_resort,3.0,"['wifi', 'spa', 'pool', 'restaurant', 'beach_access']","['standard', 'deluxe', 'family']",,,,,,,,,
Vinpearl Resort & Spa Phu Quoc,Phu Quoc,4.2,"['resort', 'midrange', 'family']",10.2899,103.984,Resort 4 sao cho gia đình,family_resort,3.0,"['wifi', 'spa', 'pool', 'restaurant', 'kids_club', 'family_activities']","['standard', 'deluxe', 'family_villa']",,,,,,,,,
Mercure Haiphong,Hai Phong,4.0,"['hotel', 'accommodation']",20.850981900401337,106.68690048330004,"12, Phố Lạch Tray, Phường Gia Viên, Hải Phòng, 18000, Vietnam",hotel,0.0,,,,,,,,,,,2025-10-22T02:13:00.808764
Khách sạn Hoa Việt Anh,Hai Phong,4.1,"['hotel', 'accommodation']",20.842689600401155,106.66981089999999,"số 10b, ngõ 261, Phố Trần Nguyên Hãn, Phường An Biên, Hải Phòng, 18000, Vietnam",hotel,0.0,,,,,,,,,,,2025-10-22T02:13:00.808778
Draco Thang Long Hotel,Hai Phong,4.2,"['hotel', 'accommodation']",20.864367600401632,106.6811114,"No. 2, Hoang Van Thu Bridge, Phường Hồng Bàng, Hải Phòng, 18000, Vietnam",hotel,0.0,,,,,,,,,,,2025-10-22T02:13:00.808783
An Đào Hotel,Hai Phong,4.3,"['hotel', 'accommodation']",20.841823700401125,106.699601,"Ngõ 128 An Đà, Phường Gia Viên, Hải Phòng, 18000, Vietnam",hotel,0.0,,,,,,,,,,,2025-10-22T02:13:00.808786
Khánh Huyền Motel,Hai Phong,4.4,"['hotel', 'accommodation']",20.83657040040101,106.67261549999999,"Phố Thiên Lôi, Phường An Biên, Hải Phòng, 18000, Vietnam",hotel,0.0,,,,,,,,,,,2025-10-22T02:13:00.808789
hai phong woody garden hostel,Hai Phong,4.5,"['hotel', 'accommodation']",20.821181800400648,106.6832183,"Phố Trực Cát, Phường An Biên, Hải Phòng, 18000, Vietnam",hotel,0.0,,,,,,,,,,,2025-10-22T02:13:00.808792
Kiara's Home,Hai Phong,4.6,"['hotel', 'accommodation']",20.83456590040096,106.72632359999999,"12, Phố Đằng Hải, Phường Hải An, Hải Phòng, 04813, Vietnam",hotel,0.0,,,,,,,,,,,2025-10-22T02:13:00.808795
Hồng Minh,Hai Phong,4.7,"['hotel', 'accommodation']",20.881152300402004,106.62138009999998,"43, Đường Hùng Vương, Phường Hồng An, Hải Phòng, Vietnam",hotel,0.0,,,,,,,,,,,2025-10-22T02:13:00.808800
Khách Sạn Sinh Viên,Hai Phong,4.8,"['hotel', 'accommodation']",20.834634350400968,106.69086663566812,"Đường Kênh Dương (Quán Nam), Phường Lê Chân, Hải Phòng, 18000, Vietnam",hotel,0.0,,,,,,,,,,,2025-10-22T02:13:00.808803
Khách Sạn Công Đoàn,Hai Phong,4.9,"['hotel', 'accommodation']",20.84728415040125,106.68106700850441,"Phố Dư Hàng, Phường Lê Chân, Hải Phòng, 18000, Vietnam",hotel,0.0,,,,,,,,,,,2025-10-22T02:13:00.808806
Khách Sạn hải Phòng,Hai Phong,4.0,"['hotel', 'accommodation']",20.842124350401136,106.70180927144423,"Ngõ 116, Phường Gia Viên, Hải Phòng, 18000, Vietnam",hotel,0.0,,,,,,,,,,,2025-10-22T02:13:00.808809
Avani Harbour View Hotel,Hai Phong,4.1,"['hotel', 'accommodation']",20.864069250401624,106.68962229991945,"Phố Trần Phú, Phường Ngô Quyền, Hải Phòng, 18000, Vietnam",hotel,0.0,,,,,,,,,,,2025-10-22T02:13:00.808812
Rex Hotel,Hai Phong,4.2,"['hotel', 'accommodation']",20.833811650400946,106.67829230350353,"Đường Lên Cầu, Phường An Biên, Hải Phòng, 18000, Vietnam",hotel,0.0,,,,,,,,,,,2025-10-22T02:13:00.808814
Khách Sạn Hoàng Gia,Hai Phong,4.3,"['hotel', 'accommodation']",20.83391645040095,106.6976457913961,"Phố Lạch Tray, Phường Gia Viên, Hải Phòng, 18000, Vietnam",hotel,0.0,,,,,,,,,,,2025-10-22T02:13:00.808817
Khách sạn Phương Đông,Hai Phong,4.4,"['hotel', 'accommodation']",20.86653030040167,106.70014102390397,"Ngõ 189 Lê Thánh Tông, Phường Ngô Quyền, Hải Phòng, 18000, Vietnam",hotel,0.0,,,,,,,,,,,2025-10-22T02:13:00.808820
Hai Phòng Star Hotel,Hai Phong,4.5,"['hotel', 'accommodation']",20.829928650400852,106.69733145480996,"Phố Thiên Lôi, Phường Gia Viên, Hải Phòng, 18000, Vietnam",hotel,0.0,,,,,,,,,,,2025-10-22T02:13:00.808823
Bình Dương,Hai Phong,4.6,"['hotel', 'accommodation']",20.83443535040096,106.69949660749042,"Phố Vũ Trọng Khánh, Phường Gia Viên, Hải Phòng, 18000, Vietnam",hotel,0.0,,,,,,,,,,,2025-10-22T02:13:00.808827
Hotel Rose massage,Hai Phong,4.7,"['hotel', 'accommodation']",20.833584300400943,106.69584484999999,"ngõ 384 lạch tray, Phường Gia Viên, Hải Phòng, 18000, Vietnam",hotel,0.0,,,,,,,,,,,2025-10-22T02:13:00.808832
Thai Massage,Hai Phong,4.8,"['hotel', 'accommodation']",20.83015555040086,106.69660266560496,"Phố Vũ Trọng Khánh, Phường Gia Viên, Hải Phòng, 18000, Vietnam",hotel,0.0,,,,,,,,,,,2025-10-22T02:13:00.808835
Hotel New 2,Hai Phong,4.9,"['hotel', 'accommodation']",20.833365200400934,106.67725635,"Đường Kênh, Phường An Biên, Hải Phòng, 18000, Vietnam",hotel,0.0,,,,,,,,,,,2025-10-22T02:13:00.808838
Houng Bien Hotel,Ha Long,4.0,"['hotel', 'accommodation']",20.92374930040288,106.9891783,"Đường Ngọc Châu, Tuần Châu, Quảng Ninh Province, Vietnam",hotel,0.0,,,,,,,,,,,2025-10-22T02:13:14.868587
Halong Party Hostel & Hotel,Ha Long,4.1,"['hotel', 'accommodation']",20.957302900403555,107.05013109999999,"21, Vườn Đào - Bãi Cháy, Bãi Cháy, Hạ Long, Quảng Ninh Province 01000, Vietnam",hotel,0.0,,,,,,,,,,,2025-10-22T02:13:14.868596
MINALO Hotel,Ha Long,4.2,"['hotel', 'accommodation']",20.957022600403537,107.0485979,"18, Phố Thanh Niên, Bãi Cháy, Hạ Long, Quảng Ninh Province 01000, Vietnam",hotel,0.0,,,,,,,,,,,2025-10-22T02:13:14.868599
Khách sạn Mường Thanh Luxury Quảng Ninh,Ha Long,4.3,"['hotel', 'accommodation']",20.956381200403527,107.04917804138339,"Hạ Long, Bãi Cháy, Hạ Long, Quảng Ninh Province 01000, Vietnam",hotel,0.0,,,,,,,,,,,2025-10-22T02:13:14.868604
The Yacht,Ha Long,4.4,"['hotel', 'accommodation']",20.950723050403425,107.03297765172414,"Lý Thánh Tông, Bãi Cháy, Hạ Long, Quảng Ninh Province 01000, Vietnam",hotel,0.0,,,,,,,,,,,2025-10-22T02:13:14.868607
Khách sạn Bưu điện Hạ Long,Ha Long,4.5,"['hotel', 'accommodation']",20.95680900040354,107.05022039410817,"Vườn Đào, Bãi Cháy, Hạ Long, Quảng Ninh Province 01000, Vietnam",hotel,0.0,,,,,,,,,,,2025-10-22T02:13:14.868609
Ha Long Palace,Ha Long,4.6,"['hotel', 'accommodation']",20.95549455040351,107.02091941386138,"Phan Bội Châu, Bãi Cháy, Hạ Long, Quảng Ninh Province 01000, Vietnam",hotel,0.0,,,,,,,,,,,2025-10-22T02:13:14.868612
Marina,Ha Long,4.7,"['hotel', 'accommodation']",20.95476660040351,107.02184639478781,"Vĩnh Thực, Bãi Cháy, Hạ Long, Quảng Ninh Province 01000, Vietnam",hotel,0.0,,,,,,,,,,,2025-10-22T02:13:14.868615
Crown Hotel,Ha Long,4.8,"['hotel', 'accommodation']",20.954559950403496,107.0221375965071,"Đường Hoàng Quốc Việt, Bãi Cháy, Hạ Long, Quảng Ninh Province 01000, Vietnam",hotel,0.0,,,,,,,,,,,2025-10-22T02:13:14.868617
Mường Thanh Grand Hạ Long,Ha Long,4.9,"['hotel', 'accommodation']",20.954246850403486,107.02238415659951,"Đường Hoàng Quốc Việt, Bãi Cháy, Hạ Long, Quảng Ninh Province 01000, Vietnam",hotel,0.0,,,,,,,,,,,2025-10-22T02:13:14.868620
Moon Hotel,Ha Long,4.0,"['hotel', 'accommodation']",20.954602450403492,107.02233054999999,"Phố Lê Phụng Hiểu, Bãi Cháy, Hạ Long, Quảng Ninh Province 01000, Vietnam",hotel,0.0,,,,,,,,,,,2025-10-22T02:13:14.868622
Galaxy Ha Long Hotel,Ha Long,4.1,"['hotel', 'accommodation']",20.954744150403492,107.02228255,"Phố Lê Phụng Hiểu, Bãi Cháy, Hạ Long, Quảng Ninh Province 01000, Vietnam",hotel,0.0,,,,,,,,,,,2025-10-22T02:13:14.868625
Au Lac Hotel,Ha Long,4.2,"['hotel', 'accommodation']",20.9548845004035,107.022235,"Phố Lê Phụng Hiểu, Bãi Cháy, Hạ Long, Quảng Ninh Province 01000, Vietnam",hotel,0.0,,,,,,,,,,,2025-10-22T02:13:14.868627
Khách sạn Hương Biển,Ha Long,4.3,"['hotel', 'accommodation']",20.9447395004033,107.12305024831994,"Nguyễn Văn Cừ, Phường Hạ Long, Hạ Long, Quảng Ninh Province 01010, Vietnam",hotel,0.0,,,,,,,,,,,2025-10-22T02:13:14.868631
Novotel Ha Long,Ha Long,4.4,"['hotel', 'accommodation']",20.951970100403443,107.04202279272464,"Lý Quốc Sư, Bãi Cháy, Hạ Long, Quảng Ninh Province 01000, Vietnam",hotel,0.0,,,,,,,,,,,2025-10-22T02:13:14.868634
Khách sạn Sài Gòn Hạ Long,Ha Long,4.5,"['hotel', 'accommodation']",20.951782300403437,107.03962260170454,"Đường Bãi Cháy, Bãi Cháy, Hạ Long, Quảng Ninh Province 01000, Vietnam",hotel,0.0,,,,,,,,,,,2025-10-22T02:13:14.868636
Ha Long Pearl,Ha Long,4.6,"['hotel', 'accommodation']",20.951506400403435,107.04120399999998,"Đường Hạ Long, Bãi Cháy, Hạ Long, Quảng Ninh Province 01000, Vietnam",hotel,0.0,,,,,,,,,,,2025-10-22T02:13:14.868639
BMC Thăng Long Hotel,Ha Long,4.7,"['hotel', 'accommodation']",20.94830480040337,107.0289488,"Đường Hạ Long, Bãi Cháy, Hạ Long, Quảng Ninh Province 01000, Vietnam",hotel,0.0,,,,,,,,,,,2025-10-22T02:13:14.868641
Wyndham Hotel,Ha Long,4.8,"['hotel', 'accommodation']",20.959466300403587,107.06028611450355,"Đường Hạ Long, Bãi Cháy, Hạ Long, Quảng Ninh Province 01000, Vietnam",hotel,0.0,,,,,,,,,,,2025-10-22T02:13:14.868644
Nhang Hi Hotel,Ha Long,4.9,"['hotel', 'accommodation']",20.949635800403392,107.0297089,"Đường Bãi Cháy, Bãi Cháy, Hạ Long, Quảng Ninh Province 01000, Vietnam",hotel,0.0,,,,,,,,,,,2025-10-22T02:13:14.868646
Hai Yen Luxury Hotel,Quang Ninh,4.0,"['hotel', 'accommodation']",21.010230200404532,107.26943067771066,"Cẩm Phả City Square, Cẩm Trung, Cẩm Phả, Quảng Ninh Province 01250, Vietnam",hotel,0.0,,,,,,,,,,,2025-10-22T02:13:27.043333
Viet Trung Hotel,Quang Ninh,4.1,"['hotel', 'accommodation']",21.001597700404382,107.26841279999998,"Phố Phạm Quý Công, Cẩm Trung, Cẩm Phả, Quảng Ninh Province 01250, Vietnam",hotel,0.0,,,,,,,,,,,2025-10-22T02:13:27.043342
Nha nghi Hong Loc/300k room,Quang Ninh,4.2,"['hotel', 'accommodation']",21.079787200405704,107.3458305,"National Route 18, Mông Dương, Quảng Ninh Province, Vietnam",hotel,0.0,,,,,,,,,,,2025-10-22T02:13:27.043345
Khách sạn Vân Long,Quang Ninh,4.3,"['hotel', 'accommodation']",21.00905150040451,107.26056079999998,"Tran Phu Street, Phường Quang Hanh, Cẩm Phả, Quảng Ninh Province 01250, Vietnam",hotel,0.0,,,,,,,,,,,2025-10-22T02:13:27.043347
Mona's Homestay,Cat Ba,4.0,"['hotel', 'accommodation']",20.72580190039832,107.0471172,"180, Phố Cát Bà, Hải Phòng, 180000, Vietnam",hotel,0.0,,,,,,,,,,,2025-10-22T02:13:39.832891
Snow White’s Homestay,Cat Ba,4.1,"['hotel', 'accommodation']",20.73121810039846,107.04983619999999,"number 2 zone 8, Cai Beo Street, Hải Phòng, 187300, Vietnam",hotel,0.0,,,,,,,,,,,2025-10-22T02:13:39.832913
Monkey Island Resort,Cat Ba,4.2,"['hotel', 'accommodation']",20.729303700398408,107.07844899999999,"Cai Beo Street, Hải Phòng, Vietnam",hotel,0.0,,,,,,,,,,,2025-10-22T02:13:39.832916
Cát Bà Eco Lodge,Cat Ba,4.3,"['hotel', 'accommodation']",20.772093100399488,106.98435669999999,"ĐT.356, Hải Phòng, Vietnam",hotel,0.0,,,,,,,,,,,2025-10-22T02:13:39.832919
Cat Ba Central Homestay,Cat Ba,4.4,"['hotel', 'accommodation']",20.731915300398477,107.04933729999999,"7, Cai Beo Street, Hải Phòng, Vietnam",hotel,0.0,,,,,,,,,,,2025-10-22T02:13:39.832922
Cat Ba Mystery Homestay,Cat Ba,4.5,"['hotel', 'accommodation']",20.73484860039854,107.04427899999999,"Số 2 Lane 172, Ha Sen, Hải Phòng, 180000, Vietnam",hotel,0.0,,,,,,,,,,,2025-10-22T02:13:39.832925
Catba Oasis Bungalows Hostel,Cat Ba,4.6,"['hotel', 'accommodation']",20.721063500398195,107.0514007,"254, Phố Cát Bà, Hải Phòng, Vietnam",hotel,0.0,,,,,,,,,,,2025-10-22T02:13:39.832927
Captain Jack's Hostel,Cat Ba,4.7,"['hotel', 'accommodation']",20.73961280039867,107.0415941,"Ha Sen, Hải Phòng, Vietnam",hotel,0.0,,,,,,,,,,,2025-10-22T02:13:39.832930
Cat Ba Hostel,Cat Ba,4.8,"['hotel', 'accommodation']",20.72487910039828,107.0527876,"160, Núi Ngọc, Hải Phòng, Vietnam",hotel,0.0,,,,,,,,,,,2025-10-22T02:13:39.832933
Phong Lan,Cat Ba,4.9,"['hotel', 'accommodation']",20.7251321003983,107.0490692,"214, Phố Cát Bà, Hải Phòng, Vietnam",hotel,0.0,,,,,,,,,,,2025-10-22T02:13:39.832937
Ngoc Hoa Hotel,Cat Ba,4.0,"['hotel', 'accommodation']",20.725229400398298,107.04886589999998,"211, Phố Cát Bà, Hải Phòng, 180000, Vietnam",hotel,0.0,,,,,,,,,,,2025-10-22T02:13:39.832941
Nhật Anh Hotel 2,Cat Ba,4.1,"['hotel', 'accommodation']",20.727889700398375,107.04616639999999,"số 23, Tùng Dinh, Hải Phòng, Vietnam",hotel,0.0,,,,,,,,,,,2025-10-22T02:13:39.832944
Central Backpackers Hostel,Cat Ba,4.2,"['hotel', 'accommodation']",20.740075600398686,107.04194659999999,"Ha Sen, Hải Phòng, Vietnam",hotel,0.0,,,,,,,,,,,2025-10-22T02:13:39.832947
"Catba Love Hotel, add 261 Nui Ngoc tr, Cat Ba",Cat Ba,4.3,"['hotel', 'accommodation']",20.724569700398288,107.0522917,"261, Núi Ngọc, Hải Phòng, 0225, Vietnam",hotel,0.0,,,,,,,,,,,2025-10-22T02:13:39.832951
Trang Anh hôtel,Cat Ba,4.4,"['hotel', 'accommodation']",20.72590730039832,107.0469724,"Phố Cát Bà, Hải Phòng, Vietnam",hotel,0.0,,,,,,,,,,,2025-10-22T02:13:39.832953
Hoi Lake Farmestay,Cat Ba,4.5,"['hotel', 'accommodation']",20.79645200040007,106.9942927,"Go up, Hải Phòng, Vietnam",hotel,0.0,,,,,,,,,,,2025-10-22T02:13:39.832956
Phuong Thao,Cat Ba,4.6,"['hotel', 'accommodation']",20.726018900398326,107.0510347,"48, Núi Ngọc, Hải Phòng, Vietnam",hotel,0.0,,,,,,,,,,,2025-10-22T02:13:39.832958
Luna's House hotel & restaurat,Cat Ba,4.7,"['hotel', 'accommodation']",20.724953800398303,107.0532384,"140, Núi Ngọc, Hải Phòng, Vietnam",hotel,0.0,,,,,,,,,,,2025-10-22T02:13:39.832961
Orange Paradise,Cat Ba,4.8,"['hotel', 'accommodation']",20.777042200399602,106.9846376,"ĐT.356, Hải Phòng, Vietnam",hotel,0.0,,,,,,,,,,,2025-10-22T02:13:39.832963
Cocoon Inn Cat Ba,Cat Ba,4.9,"['hotel', 'accommodation']",20.72431030039828,107.05196429999998,"Núi Ngọc, Hải Phòng, Vietnam",hotel,0.0,,,,,,,,,,,2025-10-22T02:13:39.832967
Victoria SaPa,Sapa,4.0,"['hotel', 'accommodation']",22.336964800403265,103.84277709999999,"Hoang Dieu, Sa Pa, Lào Cai Province 31786, Vietnam",hotel,0.0,,,,,,,,,,,2025-10-22T02:13:50.681702
Muong Thanh Sapa Hotel,Sapa,4.1,"['hotel', 'accommodation']",22.337946200403245,103.84832879999999,"44, Đường Ngũ Chỉ Sơn, Sa Pa, Lào Cai Province 31786, Vietnam",hotel,0.0,,,,,,,,,,,2025-10-22T02:13:50.681715
Zizi Homestay,Sapa,4.2,"['hotel', 'accommodation']",22.30711450040384,103.8963314,"Đường tỉnh 152, Cầu Mây, Tả Van, Lào Cai Province 33000, Vietnam",hotel,0.0,,,,,,,,,,,2025-10-22T02:13:50.681720
Little View Restaurant,Sapa,4.3,"['hotel', 'accommodation']",22.332518500403353,103.84292779999998,"042 Cau May, Ngo Cau May of Mega View Homestay, Sa Pa, Lào Cai Province 31786, Vietnam",hotel,0.0,,,,,,,,,,,2025-10-22T02:13:50.681726
Woody Homestay Sapa,Sapa,4.4,"['hotel', 'accommodation']",22.331236750403374,103.82919180754641,"Cat Cat Road, Sa Pa, Lào Cai Province 31786, Vietnam",hotel,0.0,,,,,,,,,,,2025-10-22T02:13:50.681730
Terraced H'Mong Homestay,Sapa,4.5,"['hotel', 'accommodation']",22.327644000403442,103.83052680770896,"Cat Cat Road, Sa Pa, Lào Cai Province 31786, Vietnam",hotel,0.0,,,,,,,,,,,2025-10-22T02:13:50.681734
Mega View Homestay,Sapa,4.6,"['hotel', 'accommodation']",22.331710100403363,103.8433855480892,"24, Ngo Cau May, Sa Pa, Lào Cai Province 31786, Vietnam",hotel,0.0,,,,,,,,,,,2025-10-22T02:13:50.681737
Sapa Queen Hotel,Sapa,4.7,"['hotel', 'accommodation']",22.332832400403348,103.84311479999998,"9, Ngo Cau May of Mega View Homestay, Sa Pa, Lào Cai Province 31786, Vietnam",hotel,0.0,,,,,,,,,,,2025-10-22T02:13:50.681741
Mama Sa Homestay,Sapa,4.8,"['hotel', 'accommodation']",22.302717900403916,103.90361670000001,"VMM trail 2015, Mường Hoa, Lào Cai Province, Vietnam",hotel,0.0,,,,,,,,,,,2025-10-22T02:13:50.681744
Homestay Chuong An,Sapa,4.9,"['hotel', 'accommodation']",22.303220000403915,103.8913641,"Ta Van, Cầu Mây, Tả Van, Lào Cai Province 33000, Vietnam",hotel,0.0,,,,,,,,,,,2025-10-22T02:13:50.681748
Cho Cho Homestay,Sapa,4.0,"['hotel', 'accommodation']",22.296040000404048,103.89588999999998,"Road to Ta Van, Cầu Mây, Tả Van, Lào Cai Province 33000, Vietnam",hotel,0.0,,,,,,,,,,,2025-10-22T02:13:50.681752
Eco Palms House,Sapa,4.1,"['hotel', 'accommodation']",22.314829600403698,103.8830855,"Đường tỉnh 152, Cầu Mây, Tả Van, Lào Cai Province 33000, Vietnam",hotel,0.0,,,,,,,,,,,2025-10-22T02:13:50.681755
Chez Xi Quan,Sapa,4.2,"['hotel', 'accommodation']",22.39490630040207,103.85793029999999,"VMM 2019, Tả Phìn, Lào Cai Province 33000, Vietnam",hotel,0.0,,,,,,,,,,,2025-10-22T02:13:50.681759
Crazy Lazy,Sapa,4.3,"['hotel', 'accommodation']",22.297726700404006,103.8933289,"Road to Ta Van, Cầu Mây, Tả Van, Lào Cai Province 33000, Vietnam",hotel,0.0,,,,,,,,,,,2025-10-22T02:13:50.681764
Fancy Sapa Hostel 2,Sapa,4.4,"['hotel', 'accommodation']",22.338045300403238,103.8432088,"No.26, Ngõ Hùng Hồ, Sa Pa, Lào Cai Province 31786, Vietnam",hotel,0.0,,,,,,,,,,,2025-10-22T02:13:50.681768
Sapa Dao Homestay ( vrai emplacement),Sapa,4.5,"['hotel', 'accommodation']",22.359123500402813,103.8093065,"O Quy Ho Road, Phan Si Păng, Sa Pa, Lào Cai Province 31786, Vietnam",hotel,0.0,,,,,,,,,,,2025-10-22T02:13:50.681771
The little hmong house,Sapa,4.6,"['hotel', 'accommodation']",22.29953360040398,103.90912659999998,"km5 Ban Den, VMM trail 2015, Mường Hoa, Lào Cai Province 330000, Vietnam",hotel,0.0,,,,,,,,,,,2025-10-22T02:13:50.681775
Tưởng Mai,Sapa,4.7,"['hotel', 'accommodation']",22.33453500040331,103.8421226,"8, Phạm Xuân Huân, Sa Pa, Lào Cai Province 31786, Vietnam",hotel,0.0,,,,,,,,,,,2025-10-22T02:13:50.681778
Nhà nghỉ Nhật Sapa Central,Sapa,4.8,"['hotel', 'accommodation']",22.332891800403345,103.8424156,"33, Phố Đồng Lợi, Sa Pa, Lào Cai Province 31786, Vietnam",hotel,0.0,,,,,,,,,,,2025-10-22T02:13:50.681781
Chapi Homestay,Sapa,4.9,"['hotel', 'accommodation']",22.33118320040338,103.82906575457446,"Đường Lý Thị Dủ, Hoàng Liên, Lào Cai Province 31786, Vietnam",hotel,0.0,,,,,,,,,,,2025-10-22T02:13:50.681785
Nam Hoa Hotel,Ninh Binh,4.0,"['hotel', 'accommodation']",20.21413090038153,105.9349042,"Thai Vi, Ninh Hải, Ninh Bình Province 08213, Vietnam",hotel,0.0,,,,,,,,,,,2025-10-22T02:14:02.052625
Mountainside Homestay,Ninh Binh,4.1,"['hotel', 'accommodation']",20.245920700382772,105.9328316,"Tràng An, Hoa Lư, Ninh Bình Province 08212, Vietnam",hotel,0.0,,,,,,,,,,,2025-10-22T02:14:02.052634
Nhà Vườn Thiên Nhiên Tràng An,Ninh Binh,4.2,"['hotel', 'accommodation']",20.26357130038345,105.9225928,"Tràng An, Hoa Lư, Ninh Bình Province 08251, Vietnam",hotel,0.0,,,,,,,,,,,2025-10-22T02:14:02.052637
THUY ANH HOTEL,Ninh Binh,4.3,"['hotel', 'accommodation']",20.254234800383085,105.97262309999999,"Đường Trường Hán Siêu, Vân Giang, Hoa Lư, Ninh Bình Province 08212, Vietnam",hotel,0.0,,,,,,,,,,,2025-10-22T02:14:02.052639
Tuần Phone;Thu Guest House,Ninh Binh,4.4,"['hotel', 'accommodation']",20.254330200383098,105.9746897,"67;02, Phố 10, Vân Giang, Hoa Lư, Ninh Bình Province 08212, Vietnam",hotel,0.0,,,,,,,,,,,2025-10-22T02:14:02.052641
Quoc Khanh Bamboo Homestay,Ninh Binh,4.5,"['hotel', 'accommodation']",20.26553960038353,105.9211018,"Tràng An, Hoa Lư, Ninh Bình Province 08251, Vietnam",hotel,0.0,,,,,,,,,,,2025-10-22T02:14:02.052644
Xuan Lai Right View Homestay,Ninh Binh,4.6,"['hotel', 'accommodation']",20.20715300038125,105.9408364,"ĐT.491C, Ninh Hải, Ninh Bình Province 08214, Vietnam",hotel,0.0,,,,,,,,,,,2025-10-22T02:14:02.052646
Ngoc Minh Homestay,Ninh Binh,4.7,"['hotel', 'accommodation']",20.215736700381587,105.93793500000001,"ĐT.491C, Ninh Hải, Ninh Bình Province 08214, Vietnam",hotel,0.0,,,,,,,,,,,2025-10-22T02:14:02.052648
tam coc horizon bungalow,Ninh Binh,4.8,"['hotel', 'accommodation']",20.221470800381816,105.9377005,"Thai Vi, Ninh Hải, Ninh Bình Province 08213, Vietnam",hotel,0.0,,,,,,,,,,,2025-10-22T02:14:02.052650
Tam Coc Garden (Authentic & natural resort),Ninh Binh,4.9,"['hotel', 'accommodation']",20.211299000381413,105.90803380000001,"Thai Vi, Ninh Hải, Ninh Bình Province 08213, Vietnam",hotel,0.0,,,,,,,,,,,2025-10-22T02:14:02.052653
Zuli Zen Home,Ninh Binh,4.0,"['hotel', 'accommodation']",20.180002400380157,105.98144750000002,"10, Quốc lộ 12B, Yên Thịnh, Ninh Bình Province 08214, Vietnam",hotel,0.0,,,,,,,,,,,2025-10-22T02:14:02.052657
Tam Cốc Palm house,Ninh Binh,4.1,"['hotel', 'accommodation']",20.215272300381567,105.92920259999998,"Thai Vi, Ninh Hải, Ninh Bình Province 08213, Vietnam",hotel,0.0,,,,,,,,,,,2025-10-22T02:14:02.052939
Hang Mua Homestay,Ninh Binh,4.2,"['hotel', 'accommodation']",20.23276100038227,105.94198490000001,"491B, Hoa Lư, Ninh Bình Province 08212, Vietnam",hotel,0.0,,,,,,,,,,,2025-10-22T02:14:02.052943
Ninh binh valle montana homestay,Ninh Binh,4.3,"['hotel', 'accommodation']",20.24660410038279,105.9352692,"491B, Hoa Lư, Ninh Bình Province 08212, Vietnam",hotel,0.0,,,,,,,,,,,2025-10-22T02:14:02.052946
Trang An Freedom Hood,Ninh Binh,4.4,"['hotel', 'accommodation']",20.261700100383372,105.91307009999998,"Tràng An, Hoa Lư, Ninh Bình Province 08251, Vietnam",hotel,0.0,,,,,,,,,,,2025-10-22T02:14:02.052948
Sonavie Hotel Ninh Bình,Ninh Binh,4.5,"['hotel', 'accommodation']",20.266652200383575,105.961362,"148, Đinh Điền, Tân Thành, Hoa Lư, Ninh Bình Province 08212, Vietnam",hotel,0.0,,,,,,,,,,,2025-10-22T02:14:02.052950
Thanh Binh,Ninh Binh,4.6,"['hotel', 'accommodation']",20.25659910038319,105.9709334,"31, Đường Lương Văn Tuỵ, Vân Giang, Hoa Lư, Ninh Bình Province 08212, Vietnam",hotel,0.0,,,,,,,,,,,2025-10-22T02:14:02.052953
Queen Mini Hotel,Ninh Binh,4.7,"['hotel', 'accommodation']",20.251507600382993,105.97851969999999,"21, Đường Hoàng Hoa Thám, Vân Giang, Hoa Lư, Ninh Bình Province 08212, Vietnam",hotel,0.0,,,,,,,,,,,2025-10-22T02:14:02.052955
AIQ Hotel,Ninh Binh,4.8,"['hotel', 'accommodation']",20.2493209003829,105.9757454,"Đường Lý Thường Kiệt, Nam Bình, Hoa Lư, Ninh Bình Province 08212, Vietnam",hotel,0.0,,,,,,,,,,,2025-10-22T02:14:02.052957
Nguyễn Shack,Ninh Binh,4.9,"['hotel', 'accommodation']",20.22941670038213,105.9391633,"Lotus lake boardwalk, Hoa Lư, Ninh Bình Province 08213, Vietnam",hotel,0.0,,,,,,,,,,,2025-10-22T02:14:02.052959
Tam Dao Belvedere Resort,Tam Dao,4.0,"['hotel', 'accommodation']",21.45099200040966,105.63893099999999,"Quốc lộ 2B, Tam Đảo, Phú Thọ Province, Vietnam",hotel,0.0,,,,,,,,,,,2025-10-22T02:14:13.270867
Camellia Luxury Hotel Tam Đảo,Tam Dao,4.1,"['hotel', 'accommodation']",21.456568500409688,105.64525659999998,"Quốc lộ 2B, Tam Đảo, Phú Thọ Province, Vietnam",hotel,0.0,,,,,,,,,,,2025-10-22T02:14:13.270877
mac tam dao,Tam Dao,4.2,"['hotel', 'accommodation']",21.455788400409684,105.64942939999999,"Quốc lộ 2B, Tam Đảo, Phú Thọ Province, Vietnam",hotel,0.0,,,,,,,,,,,2025-10-22T02:14:13.270881
Nhà khách Công đoàn Tam Đảo,Tam Dao,4.3,"['hotel', 'accommodation']",21.455419200409693,105.64323026142588,"Quốc lộ 2B, Tam Đảo, Phú Thọ Province, Vietnam",hotel,0.0,,,,,,,,,,,2025-10-22T02:14:13.270884
Khách sạn Báo Nhân dân,Tam Dao,4.4,"['hotel', 'accommodation']",21.455175300409685,105.64745017890279,"Quốc lộ 2B, Tam Đảo, Phú Thọ Province, Vietnam",hotel,0.0,,,,,,,,,,,2025-10-22T02:14:13.270887
Khách sạn Mela,Tam Dao,4.5,"['hotel', 'accommodation']",21.45315155040967,105.64517964246181,"Quốc lộ 2B, Tam Đảo, Phú Thọ Province, Vietnam",hotel,0.0,,,,,,,,,,,2025-10-22T02:14:13.270890
Hotel Anh Minh,Tam Dao,4.6,"['hotel', 'accommodation']",21.454570000409685,105.6457037,"Quốc lộ 2B, Tam Đảo, Phú Thọ Province, Vietnam",hotel,0.0,,,,,,,,,,,2025-10-22T02:14:13.270892
Khách sạn Anh Đào Tam Đảo,Tam Dao,4.7,"['hotel', 'accommodation']",21.45443230040968,105.6459436,"Quốc lộ 2B, Tam Đảo, Phú Thọ Province, Vietnam",hotel,0.0,,,,,,,,,,,2025-10-22T02:14:13.270895
Khách sạn Hòa Bình,Tam Dao,4.8,"['hotel', 'accommodation']",21.455033100409697,105.64519849999999,"Quốc lộ 2B, Tam Đảo, Phú Thọ Province, Vietnam",hotel,0.0,,,,,,,,,,,2025-10-22T02:14:13.270898
Khách sạn Hanvet,Tam Dao,4.9,"['hotel', 'accommodation']",21.45447260040968,105.6450377,"Quốc lộ 2B, Tam Đảo, Phú Thọ Province, Vietnam",hotel,0.0,,,,,,,,,,,2025-10-22T02:14:13.270901
Khách sạn Suối Bạc,Tam Dao,4.0,"['hotel', 'accommodation']",21.45428500040968,105.6452597,"Quốc lộ 2B, Tam Đảo, Phú Thọ Province, Vietnam",hotel,0.0,,,,,,,,,,,2025-10-22T02:14:13.270904
Hotel Tam Dao 12,Tam Dao,4.1,"['hotel', 'accommodation']",21.465954200409747,105.57865559999999,"Đại Đình, Phú Thọ Province, Vietnam",hotel,0.0,,,,,,,,,,,2025-10-22T02:14:13.270907
Hoa Binh 2,Nghe An,4.0,"['hotel', 'accommodation']",18.66409710028971,105.68695019999998,"2, Ngô Đức Kế, Hồng Sơn, Vinh, Nghệ An Province, Vietnam",hotel,0.0,,,,,,,,,,,2025-10-22T02:14:30.145468
nhà của tôi,Nghe An,4.1,"['hotel', 'accommodation']",18.668840200290063,105.6801808,"24, Đặng Tất, Lê Mao, Vinh, Nghệ An Province, Vietnam",hotel,0.0,,,,,,,,,,,2025-10-22T02:14:30.145476
Khách sạn Mường Thanh Thanh Niên,Nghe An,4.2,"['hotel', 'accommodation']",18.675685950290593,105.68415110094375,"Lê Hồng Phong, Hưng Bình, Vinh, Nghệ An Province, Vietnam",hotel,0.0,,,,,,,,,,,2025-10-22T02:14:30.145479
ks huu nghi,Nghe An,4.3,"['hotel', 'accommodation']",18.68602740029139,105.6751278,"Mai Hắc Đế, Lê Lợi, Vinh, Nghệ An Province, Vietnam",hotel,0.0,,,,,,,,,,,2025-10-22T02:14:30.145481
Student accommodation,Nghe An,4.4,"['hotel', 'accommodation']",18.653993800288927,105.69027719999998,"Phượng Hoàng, Trung Đô, Vinh, Nghệ An Province, Vietnam",hotel,0.0,,,,,,,,,,,2025-10-22T02:14:30.145484
Lá Dò Hotel,Nghe An,4.5,"['hotel', 'accommodation']",18.68130770029103,105.68429079999999,"Nguyễn Văn Cừ, Hưng Phúc, Vinh, Nghệ An Province, Vietnam",hotel,0.0,,,,,,,,,,,2025-10-22T02:14:30.145488
Sao Việt,Nghe An,4.6,"['hotel', 'accommodation']",18.64758030028843,105.6665943,"01, National Route 1 bypassing Vinh city, Trung Đô, Vinh, Nghệ An Province, Vietnam",hotel,0.0,,,,,,,,,,,2025-10-22T02:14:30.145490
Tanh Vinh Hotel,Nghe An,4.7,"['hotel', 'accommodation']",18.68417690029125,105.67438809999999,"Lê Lợi, Lê Lợi, Vinh, Nghệ An Province, Vietnam",hotel,0.0,,,,,,,,,,,2025-10-22T02:14:30.145492
Anh Quan,Nghe An,4.8,"['hotel', 'accommodation']",18.703140700292703,105.670998,"Đường Bùi Dương Lịch, Quán Bàu, Vinh, Nghệ An Province, Vietnam",hotel,0.0,,,,,,,,,,,2025-10-22T02:14:30.145494
Tokyo 2 Hotel,Nghe An,4.9,"['hotel', 'accommodation']",18.67526560029056,105.69631189999998,"Phong Định Cảng, Bến Thủy, Vinh, Nghệ An Province, Vietnam",hotel,0.0,,,,,,,,,,,2025-10-22T02:14:30.145497
Nhà Anh Ten,Nghe An,4.0,"['hotel', 'accommodation']",18.66947980029011,105.7001027,"Phong Định Cảng, Bến Thủy, Vinh, Nghệ An Province, Vietnam",hotel,0.0,,,,,,,,,,,2025-10-22T02:14:30.145499
Nhà anh Ten,Nghe An,4.1,"['hotel', 'accommodation']",18.669367700290113,105.70020499999998,"Phong Định Cảng, Bến Thủy, Vinh, Nghệ An Province, Vietnam",hotel,0.0,,,,,,,,,,,2025-10-22T02:14:30.145501
Cheap accomodation for backpackers,Nghe An,4.2,"['hotel', 'accommodation']",18.65474020028898,105.698771,"Nguyễn Du, Trung Đô, Vinh, Nghệ An Province, Vietnam",hotel,0.0,,,,,,,,,,,2025-10-22T02:14:30.145503
Sai gon Kim Lien,Nghe An,4.3,"['hotel', 'accommodation']",18.670966500290234,105.6739416,"Quang Trung, Quang Trung, Vinh, Nghệ An Province, Vietnam",hotel,0.0,,,,,,,,,,,2025-10-22T02:14:30.145505
Mường Thanh Luxury Song Lam Hotel,Nghe An,4.4,"['hotel', 'accommodation']",18.668020400289997,105.67375670000001,"Quang Trung, Quang Trung, Vinh, Nghệ An Province, Vietnam",hotel,0.0,,,,,,,,,,,2025-10-22T02:14:30.145507
Tecco sky hotel and spa,Nghe An,4.5,"['hotel', 'accommodation']",18.68492720029131,105.67528879999999,"Lê Lợi, Lê Lợi, Vinh, Nghệ An Province, Vietnam",hotel,0.0,,,,,,,,,,,2025-10-22T02:14:30.145511
Khach San Viet Uc,Nghe An,4.6,"['hotel', 'accommodation']",18.674651800290523,105.69761349999999,"Phong Định Cảng, Bến Thủy, Vinh, Nghệ An Province, Vietnam",hotel,0.0,,,,,,,,,,,2025-10-22T02:14:30.145513
Dai Hue Palace,Nghe An,4.7,"['hotel', 'accommodation']",18.676097400290626,105.6949305,"Phong Định Cảng, Bến Thủy, Vinh, Nghệ An Province, Vietnam",hotel,0.0,,,,,,,,,,,2025-10-22T02:14:30.145515
Nhà Nghỉ Long Lưu,Nghe An,4.8,"['hotel', 'accommodation']",18.701190600292552,105.6920558,"Phạm Đình Toái, Hà Huy Tập, Vinh, Nghệ An Province, Vietnam",hotel,0.0,,,,,,,,,,,2025-10-22T02:14:30.145517
Hoàng Tuấn,Nghe An,4.9,"['hotel', 'accommodation']",18.72513620029438,105.66501222997542,"Bùi Hiển, Nghi Kim, Nghệ An Province, Vietnam",hotel,0.0,,,,,,,,,,,2025-10-22T02:14:30.145519
Beachside Backpackers Hostel Restaurant Bar,Quang Binh,4.0,"['hotel', 'accommodation']",17.501164100186685,106.62084619999999,"Truong Phap Road, Dong Thuan Ward, Dong Hoi Ward, Quảng Trị Province, Vietnam",hotel,0.0,,,,,,,,,,,2025-10-22T02:14:41.377739
Ước Mơ,Quang Binh,4.1,"['hotel', 'accommodation']",17.473470300183944,106.62199399999999,"72, Cao Ba Quat Road, Dong Hoi Ward, Quảng Trị Province 510000, Vietnam",hotel,0.0,,,,,,,,,,,2025-10-22T02:14:41.377748
TIKI HOSTEL&PUB,Quang Binh,4.2,"['hotel', 'accommodation']",17.50374490018695,106.6191123,"Truong Phap Road, Dong Thuan Ward, Dong Hoi Ward, Quảng Trị Province 51000, Vietnam",hotel,0.0,,,,,,,,,,,2025-10-22T02:14:41.377752
Mai Hồng,Quang Binh,4.3,"['hotel', 'accommodation']",17.48820320018541,106.6271335,"143, Truong Phap Road, Dong Hoi Ward, Quảng Trị Province, Vietnam",hotel,0.0,,,,,,,,,,,2025-10-22T02:14:41.377755
Mường Thanh Holiday Quảng Bình,Quang Binh,4.4,"['hotel', 'accommodation']",17.48635900018522,106.62681129999999,"119, Truong Phap Road, Dong Hoi Ward, Quảng Trị Province, Vietnam",hotel,0.0,,,,,,,,,,,2025-10-22T02:14:41.377757
LeNa Homestay Villa,Quang Binh,4.5,"['hotel', 'accommodation']",17.47737790018433,106.6218731,"110, Duong Van An Road, Dong Hoi Ward, Quảng Trị Province, Vietnam",hotel,0.0,,,,,,,,,,,2025-10-22T02:14:41.377759
Mau Hong,Quang Binh,4.6,"['hotel', 'accommodation']",17.479863600184586,106.6248923,"Truong Phap Road, Dong Hoi Ward, Quảng Trị Province, Vietnam",hotel,0.0,,,,,,,,,,,2025-10-22T02:14:41.377762
HIGH DREAM Hostel,Quang Binh,4.7,"['hotel', 'accommodation']",17.473255900183933,106.62205489999998,"72, Cao Ba Quat Road, Dong Hoi Ward, Quảng Trị Province, Vietnam",hotel,0.0,,,,,,,,,,,2025-10-22T02:14:41.377764
Hoang Dat Hotel,Quang Binh,4.8,"['hotel', 'accommodation']",17.49705620018628,106.59254719999998,"225, Ly Thanh Tong Road, Dong Thuan Ward, Dong Hoi Ward, Quảng Trị Province 510000, Vietnam",hotel,0.0,,,,,,,,,,,2025-10-22T02:14:41.377766
Riverview Homestay,Quang Binh,4.9,"['hotel', 'accommodation']",17.483952600184992,106.6259011,"93, Truong Phap Road, Dong Hoi Ward, Quảng Trị Province, Vietnam",hotel,0.0,,,,,,,,,,,2025-10-22T02:14:41.377768
Bao Ninh Beach Resort,Quang Binh,4.0,"['hotel', 'accommodation']",17.46106395018271,106.6443182073194,"Vo Nguyen Giap Road, Dong Hoi Ward, Quảng Trị Province, Vietnam",hotel,0.0,,,,,,,,,,,2025-10-22T02:14:41.377771
Melia Hotel & Resort Quang Binh,Quang Binh,4.1,"['hotel', 'accommodation']",17.476600350184256,106.63469698520248,"Đường Mỹ Cảnh, Dong Hoi Ward, Quảng Trị Province, Vietnam",hotel,0.0,,,,,,,,,,,2025-10-22T02:14:41.377773
Sun Spa Resort,Quang Binh,4.2,"['hotel', 'accommodation']",17.479746600184555,106.63368089999999,"Đường Mỹ Cảnh, Dong Hoi Ward, Quảng Trị Province, Vietnam",hotel,0.0,,,,,,,,,,,2025-10-22T02:14:41.377776
Khách sạn Tân Bình,Quang Binh,4.3,"['hotel', 'accommodation']",17.463314350182934,106.62293409126426,"Le Van Huu Road, Dong Hoi Ward, Quảng Trị Province, Vietnam",hotel,0.0,,,,,,,,,,,2025-10-22T02:14:41.377779
Radisson Hotel Quảng Bình,Quang Binh,4.4,"['hotel', 'accommodation']",17.466086450183212,106.62602281834873,"Quach Xuan Ky Road, Dong Hoi Ward, Quảng Trị Province, Vietnam",hotel,0.0,,,,,,,,,,,2025-10-22T02:14:41.377781
Long Bình,Quang Binh,4.5,"['hotel', 'accommodation']",17.479507300184547,106.6203416,"Ly Thuong Kiet Road, Dong Hoi Ward, Quảng Trị Province, Vietnam",hotel,0.0,,,,,,,,,,,2025-10-22T02:14:41.377784
Ke Bang Hotel,Quang Binh,4.6,"['hotel', 'accommodation']",17.476314000184228,106.62334659999999,"Nguyen Du Road, Dong Hoi Ward, Quảng Trị Province, Vietnam",hotel,0.0,,,,,,,,,,,2025-10-22T02:14:41.377786
Năm Long Hotel,Quang Binh,4.7,"['hotel', 'accommodation']",17.476375400184235,106.62319099999999,"Ho Xuan Huong Road, Dong Hoi Ward, Quảng Trị Province, Vietnam",hotel,0.0,,,,,,,,,,,2025-10-22T02:14:41.377788
Lương Thực,Quang Binh,4.8,"['hotel', 'accommodation']",17.473480900183933,106.62180529999999,"Cao Ba Quat Road, Dong Hoi Ward, Quảng Trị Province, Vietnam",hotel,0.0,,,,,,,,,,,2025-10-22T02:14:41.377790
Nhà nghỉ dưỡng Hải Đăng,Quang Binh,4.9,"['hotel', 'accommodation']",17.46784035018338,106.64057496324494,"Vo Nguyen Giap Road, Dong Hoi Ward, Quảng Trị Province, Vietnam",hotel,0.0,,,,,,,,,,,2025-10-22T02:14:41.377792
Tre Xanh **,Thua Thien Hue,4.0,"['hotel', 'accommodation']",16.463857600077098,107.59430769999999,"61, Hùng Vương, Phường Thuận Hóa, Huế, Huế 54000, Vietnam",hotel,0.0,,,,,,,,,,,2025-10-22T02:14:53.611884
Khách sạn Nhà hàng tiệc cưới Trúc Xanh,Thua Thien Hue,4.1,"['hotel', 'accommodation']",16.456997700076332,107.55786139999998,"08, Nguyễn Phúc Nguyên, Phú Xuân District, Huế 54000, Vietnam",hotel,0.0,,,,,,,,,,,2025-10-22T02:14:53.611895
NewLife Homestay,Thua Thien Hue,4.2,"['hotel', 'accommodation']",16.469390300077723,107.5962568,"35/10, Chu Văn An, Phường Thuận Hóa, Huế, Huế 54000, Vietnam",hotel,0.0,,,,,,,,,,,2025-10-22T02:14:53.611899
Ibiza Guest House,Thua Thien Hue,4.3,"['hotel', 'accommodation']",16.468789100077643,107.59670690000002,"52/42, Nguyễn Công Trứ, Phường Thuận Hóa, Huế, Huế 54000, Vietnam",hotel,0.0,,,,,,,,,,,2025-10-22T02:14:53.611904
Home Hotel,Thua Thien Hue,4.4,"['hotel', 'accommodation']",16.472055000078015,107.5952904,"08, Nguyễn Công Trứ, Phường Thuận Hóa, Huế, Huế 54000, Vietnam",hotel,0.0,,,,,,,,,,,2025-10-22T02:14:53.611907
Melody Hostel,Thua Thien Hue,4.5,"['hotel', 'accommodation']",16.46862370007762,107.5962891,"41, Chu Văn An, Phường Thuận Hóa, Huế, Huế 54000, Vietnam",hotel,0.0,,,,,,,,,,,2025-10-22T02:14:53.611910
Hotel Saigon Morin,Thua Thien Hue,4.6,"['hotel', 'accommodation']",16.466655300077413,107.59030492053327,"30, Lê Lợi, Phường Thuận Hóa, Huế, Huế 47000, Vietnam",hotel,0.0,,,,,,,,,,,2025-10-22T02:14:53.611913
Khách sạn Indochine Palace,Thua Thien Hue,4.7,"['hotel', 'accommodation']",16.461418350076826,107.59794367406269,"105A, Hùng Vương, Phường Thuận Hóa, Huế, Huế 54000, Vietnam",hotel,0.0,,,,,,,,,,,2025-10-22T02:14:53.611916
La Résidence,Thua Thien Hue,4.8,"['hotel', 'accommodation']",16.45909155007657,107.58015360407893,"5, Lê Lợi, Phường Thuận Hóa, Huế, Huế 54000, Vietnam",hotel,0.0,,,,,,,,,,,2025-10-22T02:14:53.611919
Silk Path Grand Hue Hotel,Thua Thien Hue,4.9,"['hotel', 'accommodation']",16.457692150076408,107.57992165579934,"2, Le Loi Street, Phường Thuận Hóa, Huế, Huế 49000, Vietnam",hotel,0.0,,,,,,,,,,,2025-10-22T02:14:53.611922
Tran Ly,Thua Thien Hue,4.0,"['hotel', 'accommodation']",16.47049220007785,107.5945042,"78, Lê Lợi, Phường Thuận Hóa, Huế, Huế 54000, Vietnam",hotel,0.0,,,,,,,,,,,2025-10-22T02:14:53.611926
Alba Hotel SPA,Thua Thien Hue,4.1,"['hotel', 'accommodation']",16.46512685007724,107.59526989999999,"29, Trần Quang Khải, Phường Thuận Hóa, Huế, Huế 54000, Vietnam",hotel,0.0,,,,,,,,,,,2025-10-22T02:14:53.611929
Senna Hue Hotel,Thua Thien Hue,4.2,"['hotel', 'accommodation']",16.465865000077322,107.5935801674941,"7, Nguyễn Tri Phương, Phường Thuận Hóa, Huế, Huế 53000, Vietnam",hotel,0.0,,,,,,,,,,,2025-10-22T02:14:53.611932
Hong Thien 1 Hotel,Thua Thien Hue,4.3,"['hotel', 'accommodation']",16.46933710007771,107.5962366,"35/6, Chu Văn An, Phường Thuận Hóa, Huế, Huế 54000, Vietnam",hotel,0.0,,,,,,,,,,,2025-10-22T02:14:53.611935
Lucky Homestay,Thua Thien Hue,4.4,"['hotel', 'accommodation']",16.46681460007743,107.59316789999998,"46, Trần Cao Vân, Phường Thuận Hóa, Huế, Huế 54000, Vietnam",hotel,0.0,,,,,,,,,,,2025-10-22T02:14:53.611937
Cuoc Song Moi Homestay,Thua Thien Hue,4.5,"['hotel', 'accommodation']",16.47040960007783,107.5967794,"35/10, Chu Văn An, Phường Thuận Hóa, Huế, Huế 54000, Vietnam",hotel,0.0,,,,,,,,,,,2025-10-22T02:14:53.611940
Royal Crest Hotel,Thua Thien Hue,4.6,"['hotel', 'accommodation']",16.475654200078424,107.5959418,"Nguyễn Sinh Cung, Phường Vỹ Dạ, Huế 54000, Vietnam",hotel,0.0,,,,,,,,,,,2025-10-22T02:14:53.611943
Huế Amazing Easy Rider and Homestay,Thua Thien Hue,4.7,"['hotel', 'accommodation']",16.47174240007798,107.609813,"183/1C, Nguyễn Lộ Trạch, Phường Vỹ Dạ, Huế, Huế 54000, Vietnam",hotel,0.0,,,,,,,,,,,2025-10-22T02:14:53.611946
Hong Thien Ruby Hotel,Thua Thien Hue,4.8,"['hotel', 'accommodation']",16.46943680007772,107.59629099999998,"35/12, Chu Văn An, Phường Thuận Hóa, Huế, Huế 54000, Vietnam",hotel,0.0,,,,,,,,,,,2025-10-22T02:14:53.611949
Thanh Lich Royal Boutique,Thua Thien Hue,4.9,"['hotel', 'accommodation']",16.460386500076712,107.5893773,"33, Hai Bà Trưng, Phường Thuận Hóa, Huế, Huế 54000, Vietnam",hotel,0.0,,,,,,,,,,,2025-10-22T02:14:53.611951
